[
  {
    "category": "グルメ",
    "subcategory": "お好み焼き",
    "name": "お好み焼き ひうら",
    "address": "昭南町7-5",
    "tel": "89-1816",
    "lat": 40.201085,
    "lng": 140.022245
  },
  {
    "category": "グルメ",
    "subcategory": "お好み焼き",
    "name": "鉄板空間 縁",
    "address": "柳町6-16",
    "tel": "74-5474",
    "lat": 40.209224,
    "lng": 140.027964
  },
  {
    "category": "グルメ",
    "subcategory": "カフェ",
    "name": "ORION（オリオン）",
    "address": "追分町3-17MKビル",
    "tel": "55-0428",
    "lat": 40.202528,
    "lng": 140.03129
  },
  {
    "category": "グルメ",
    "subcategory": "カフェ",
    "name": "夢工房 咲く・咲く",
    "address": "上町8-22",
    "tel": "090-2279-4492",
    "lat": 40.212742,
    "lng": 140.029079
  },
  {
    "category": "グルメ",
    "subcategory": "スイーツ",
    "name": "エーワンベーカリー",
    "address": "上町7-4",
    "tel": "52-2343",
    "lat": 40.213178,
    "lng": 140.027663
  },
  {
    "category": "グルメ",
    "subcategory": "スイーツ",
    "name": "越後屋菓子店",
    "address": "大町1-16",
    "tel": "52-5416",
    "lat": 40.212794,
    "lng": 140.025624
  },
  {
    "category": "グルメ",
    "subcategory": "スイーツ",
    "name": "桔梗屋",
    "address": "畠町6-8",
    "tel": "52-5853",
    "lat": 40.210362,
    "lng": 140.02954
  },
  {
    "category": "グルメ",
    "subcategory": "スイーツ",
    "name": "ケーキのメルヘン",
    "address": "寿域長根1-1",
    "tel": "53-4128",
    "lat": 40.192292,
    "lng": 140.02898
  },
  {
    "category": "グルメ",
    "subcategory": "スイーツ",
    "name": "松雲堂",
    "address": "柳町9-29",
    "tel": "52-2613",
    "lat": 40.209812,
    "lng": 140.025527
  },
  {
    "category": "グルメ",
    "subcategory": "スイーツ",
    "name": "鈴木屋",
    "address": "鳥小屋9-5",
    "tel": "52-3887",
    "lat": 40.197578,
    "lng": 140.018389
  },
  {
    "category": "グルメ",
    "subcategory": "スイーツ",
    "name": "セキト 上町本店",
    "address": "上町12-2",
    "tel": "55-0030",
    "lat": 40.212629,
    "lng": 140.030125
  },
  {
    "category": "グルメ",
    "subcategory": "スイーツ",
    "name": "セキト バイパス店",
    "address": "字下内崎63-13",
    "tel": "52-1230",
    "lat": 40.186897,
    "lng": 140.044805
  },
  {
    "category": "グルメ",
    "subcategory": "スイーツ",
    "name": "たきや菓子店",
    "address": "南元町1-40",
    "tel": "52-3632",
    "lat": 40.204238,
    "lng": 140.03173
  },
  {
    "category": "グルメ",
    "subcategory": "スイーツ",
    "name": "フランス菓子 カスミ",
    "address": "東大瀬7-10",
    "tel": "55-2220",
    "lat": 40.192051,
    "lng": 140.03579
  },
  {
    "category": "グルメ",
    "subcategory": "スイーツ",
    "name": "マルホン",
    "address": "出戸本町7-33",
    "tel": "52-3286",
    "lat": 40.198154,
    "lng": 140.031197
  },
  {
    "category": "グルメ",
    "subcategory": "すし",
    "name": "尾張屋",
    "address": "畠町11-21",
    "tel": "54-4062",
    "lat": 40.208614,
    "lng": 140.030359
  },
  {
    "category": "グルメ",
    "subcategory": "すし",
    "name": "蔵前寿し",
    "address": "出戸本町14-24",
    "tel": "54-4083",
    "lat": 40.195678,
    "lng": 140.030059
  },
  {
    "category": "グルメ",
    "subcategory": "すし",
    "name": "札幌海鮮丸 能代店",
    "address": "字豊祥岱1-7",
    "tel": "55-3883",
    "lat": 40.192619,
    "lng": 140.029587
  },
  {
    "category": "グルメ",
    "subcategory": "すし",
    "name": "鮨待夢 能代店",
    "address": "南陽崎31-20",
    "tel": "55-3277",
    "lat": 40.186709,
    "lng": 140.012795
  },
  {
    "category": "グルメ",
    "subcategory": "すし",
    "name": "ミキ寿司",
    "address": "大手町5-26",
    "tel": "54-2415",
    "lat": 40.210812,
    "lng": 140.023972
  },
  {
    "category": "グルメ",
    "subcategory": "そば・うどん",
    "name": "そばこまち",
    "address": "明治町15-2",
    "tel": "52-2069",
    "lat": 40.199616,
    "lng": 140.03684
  },
  {
    "category": "グルメ",
    "subcategory": "そば・うどん",
    "name": "のしろ庵 バイパス店",
    "address": "字高塙165-1",
    "tel": "54-5945",
    "lat": 40.18542,
    "lng": 140.050312
  },
  {
    "category": "グルメ",
    "subcategory": "そば・うどん",
    "name": "のしろ庵 本店",
    "address": "住吉町4-13",
    "tel": "54-6956",
    "lat": 40.206835,
    "lng": 140.026786
  },
  {
    "category": "グルメ",
    "subcategory": "そば・うどん",
    "name": "のしろ庵 向能代店",
    "address": "落合字上前田128-2",
    "tel": "54-7677",
    "lat": 40.227754,
    "lng": 140.024645
  },
  {
    "category": "グルメ",
    "subcategory": "ファストフード",
    "name": "モスバーガー 能代店",
    "address": "字下野13-2",
    "tel": "55-1441",
    "lat": 40.187891,
    "lng": 140.040279
  },
  {
    "category": "グルメ",
    "subcategory": "ラーメン",
    "name": "札幌ラーメンどさん子 仁井田店",
    "address": "仁井田白山87",
    "tel": "58-2545",
    "lat": 40.189434,
    "lng": 140.056105
  },
  {
    "category": "グルメ",
    "subcategory": "ラーメン",
    "name": "ニューとん太 能代店",
    "address": "昇平岱22-27",
    "tel": "55-2236",
    "lat": 40.190937,
    "lng": 140.018771
  },
  {
    "category": "グルメ",
    "subcategory": "ラーメン",
    "name": "宝介 新能代店",
    "address": "字上柳8-5",
    "tel": "52-6025",
    "lat": 40.188213,
    "lng": 140.042017
  },
  {
    "category": "グルメ",
    "subcategory": "ラーメン",
    "name": "北海屋",
    "address": "柳町8-10",
    "tel": "52-9064",
    "lat": 40.208896,
    "lng": 140.02754
  },
  {
    "category": "グルメ",
    "subcategory": "ラーメン",
    "name": "麺家 麺四郎",
    "address": "浅内字浅内堤下74-4",
    "tel": "52-4027",
    "lat": 40.157186,
    "lng": 140.019454
  },
  {
    "category": "グルメ",
    "subcategory": "ラーメン",
    "name": "らーめん しののめ屋",
    "address": "落合字上前田120-3",
    "tel": "52-8833",
    "lat": 40.228189,
    "lng": 140.02659
  },
  {
    "category": "グルメ",
    "subcategory": "ラーメン",
    "name": "柳麺 多むら",
    "address": "花園町27-27",
    "tel": "-",
    "lat": 40.197977,
    "lng": 140.022966
  },
  {
    "category": "グルメ",
    "subcategory": "レストラン",
    "name": "Ｒ－ｆａｃｔ",
    "address": "字大瀬儘下6-40",
    "tel": "89-5337",
    "lat": 40.189773,
    "lng": 140.037117
  },
  {
    "category": "グルメ",
    "subcategory": "レストラン",
    "name": "家ビストロ プリマ・コテージ",
    "address": "字大瀬儘下66-5",
    "tel": "54-6362",
    "lat": 40.18571,
    "lng": 140.03311
  },
  {
    "category": "グルメ",
    "subcategory": "レストラン",
    "name": "お食事処 さくら亭",
    "address": "浅内字鵜川堺5",
    "tel": "55-1429",
    "lat": 40.123936,
    "lng": 140.006532
  },
  {
    "category": "グルメ",
    "subcategory": "レストラン",
    "name": "お食事処 るんるん",
    "address": "鰄渕字一本柳104-8",
    "tel": "58-2771",
    "lat": 40.188102,
    "lng": 140.074174
  },
  {
    "category": "グルメ",
    "subcategory": "レストラン",
    "name": "かつれつ庵",
    "address": "中柳21-7",
    "tel": "54-8446",
    "lat": 40.187668,
    "lng": 140.042004
  },
  {
    "category": "グルメ",
    "subcategory": "レストラン",
    "name": "キッチン・ターブル",
    "address": "畠町8-38",
    "tel": "54-4192",
    "lat": 40.209765,
    "lng": 140.028372
  },
  {
    "category": "グルメ",
    "subcategory": "レストラン",
    "name": "ブルーベリー",
    "address": "河戸川字前山40-5",
    "tel": "53-3946",
    "lat": 40.181652,
    "lng": 140.023653
  },
  {
    "category": "グルメ",
    "subcategory": "レストラン",
    "name": "宝むらん",
    "address": "柳町6-8",
    "tel": "52-3953",
    "lat": 40.209244,
    "lng": 140.028313
  },
  {
    "category": "グルメ",
    "subcategory": "レストラン",
    "name": "やま久",
    "address": "上町6-12",
    "tel": "54-8611",
    "lat": 40.212607,
    "lng": 140.028107
  },
  {
    "category": "グルメ",
    "subcategory": "レストラン",
    "name": "やま久 白神店",
    "address": "扇田字扇渕10-2 能代工業団地交流会館内",
    "tel": "70-1130",
    "lat": "",
    "lng": ""
  },
  {
    "category": "グルメ",
    "subcategory": "レストラン",
    "name": "レストラン アクア",
    "address": "住吉町2-4",
    "tel": "54-4920",
    "lat": 40.198435,
    "lng": 140.077808
  },
  {
    "category": "グルメ",
    "subcategory": "レストラン",
    "name": "レストラン 風車",
    "address": "景林町2-4",
    "tel": "52-0955",
    "lat": 40.207127,
    "lng": 140.022452
  },
  {
    "category": "グルメ",
    "subcategory": "レストラン",
    "name": "レストラン 二条",
    "address": "落合字下谷地17-1",
    "tel": "55-2113",
    "lat": 40.225992,
    "lng": 140.028843
  },
  {
    "category": "グルメ",
    "subcategory": "飲み屋",
    "name": "ａ・晩亭",
    "address": "柳町8-27",
    "tel": "55-0439",
    "lat": 40.208791,
    "lng": 140.026754
  },
  {
    "category": "グルメ",
    "subcategory": "飲み屋",
    "name": "赤から 能代店",
    "address": "字下野13-1",
    "tel": "55-3939",
    "lat": 40.188357,
    "lng": 140.040597
  },
  {
    "category": "グルメ",
    "subcategory": "飲み屋",
    "name": "居酒屋 旬",
    "address": "柳町157",
    "tel": "55-1780",
    "lat": 40.209293,
    "lng": 140.026445
  },
  {
    "category": "グルメ",
    "subcategory": "飲み屋",
    "name": "居酒屋 颯",
    "address": "柳町6-15",
    "tel": "53-5561",
    "lat": 40.20921,
    "lng": 140.028024
  },
  {
    "category": "グルメ",
    "subcategory": "飲み屋",
    "name": "居酒屋 よいしょ",
    "address": "住吉町9-5",
    "tel": "52-0382",
    "lat": 40.207917,
    "lng": 140.024456
  },
  {
    "category": "グルメ",
    "subcategory": "飲み屋",
    "name": "居酒屋 らんま",
    "address": "西通町1-7",
    "tel": "080-2832-1551",
    "lat": 40.209519,
    "lng": 140.02387
  },
  {
    "category": "グルメ",
    "subcategory": "飲み屋",
    "name": "美味処 梵天丸",
    "address": "通町9-5",
    "tel": "88-8315",
    "lat": 40.203457,
    "lng": 140.023697
  },
  {
    "category": "グルメ",
    "subcategory": "飲み屋",
    "name": "おがわ亭",
    "address": "西通町1-7",
    "tel": "52-1916",
    "lat": 40.209519,
    "lng": 140.02387
  },
  {
    "category": "グルメ",
    "subcategory": "飲み屋",
    "name": "casual BAR DRESS CODE",
    "address": "西通町2-27",
    "tel": "57-4068",
    "lat": 40.209312,
    "lng": 140.023393
  }
]